[
    {
        "id": 1,
        "identifier": "KH-1",
        "en_name": "Banteay Meanchey",
        "km_name": "ខេត្តបន្ទាយមានជ័យ",
        "latitude": 13.440381,
        "longitude": 103,
        "districts": [
            {
                "id": 1,
                "identifier": "0102",
                "en_name": "Mongkol Borei",
                "km_name": "ស្រុកមង្គលបុរី",
                "province_id": 1,
                "province_identifier": "KH-1",
                "latitude": 13.465873,
                "longitude": 103.001,
                "communes": [
                    {
                        "id": 1,
                        "identifier": "010201",
                        "en_name": "Banteay Neang",
                        "km_name": "ឃុំបន្ទាយនាង",
                        "province_id": 1,
                        "province_identifier": "KH-1",
                        "district_id": 1,
                        "district_identifier": "0102",
                        "latitude": 13.516667,
                        "longitude": 103.017
                    },
                    {
                        "id": 2,
                        "identifier": "010202",
                        "en_name": "Bat Trang",
                        "km_name": "ឃុំបត់ត្រង់",
                        "province_id": 1,
                        "province_identifier": "KH-1",
                        "district_id": 1,
                        "district_identifier": "0102",
                        "latitude": 13.538272,
                        "longitude": 102.978
                    },
                    {
                        "id": 3,
                        "identifier": "010203",
                        "en_name": "Chamnaom",
                        "km_name": "ឃុំចំណោម",
                        "province_id": 1,
                        "province_identifier": "KH-1",
                        "district_id": 1,
                        "district_identifier": "0102",
                        "latitude": 13.45,
                        "longitude": 102.933
                    },
                    {
                        "id": 4,
                        "identifier": "010204",
                        "en_name": "Kouk Ballangk",
                        "km_name": "ឃុំគោកបល្ល័ង្គ",
                        "province_id": 1,
                        "province_identifier": "KH-1",
                        "district_id": 1,
                        "district_identifier": "0102",
                        "latitude": 13.46181,
                        "longitude": 103.139
                    },
                    {
                        "id": 5,
                        "identifier": "010205",
                        "en_name": "Koy Maeng",
                        "km_name": "ឃុំគយម៉ែង",
                        "province_id": 1,
                        "province_identifier": "KH-1",
                        "district_id": 1,
                        "district_identifier": "0102",
                        "latitude": 13.551884,
                        "longitude": 103.09
                    },
                    {
                        "id": 6,
                        "identifier": "010206",
                        "en_name": "Ou Prasat",
                        "km_name": "ឃុំអូរប្រាសាទ",
                        "province_id": 1,
                        "province_identifier": "KH-1",
                        "district_id": 1,
                        "district_identifier": "0102",
                        "latitude": 13.438658,
                        "longitude": 103.041
                    },
                    {
                        "id": 7,
                        "identifier": "010207",
                        "en_name": "Phnom Touch",
                        "km_name": "ឃុំភ្នំតូច",
                        "province_id": 1,
                        "province_identifier": "KH-1",
                        "district_id": 1,
                        "district_identifier": "0102",
                        "latitude": 13.404694,
                        "longitude": 103.041
                    },
                    {
                        "id": 8,
                        "identifier": "010208",
                        "en_name": "Rohat Tuek",
                        "km_name": "ឃុំរហាត់ទឹក",
                        "province_id": 1,
                        "province_identifier": "KH-1",
                        "district_id": 1,
                        "district_identifier": "0102",
                        "latitude": 13.483333,
                        "longitude": 102.983
                    },
                    {
                        "id": 9,
                        "identifier": "010209",
                        "en_name": "Russei Kraok",
                        "km_name": "ឃុំឫស្សីក្រោក",
                        "province_id": 1,
                        "province_identifier": "KH-1",
                        "district_id": 1,
                        "district_identifier": "0102",
                        "latitude": 13.541214,
                        "longitude": 103.03
                    },
                    {
                        "id": 10,
                        "identifier": "010210",
                        "en_name": "Sambuor",
                        "km_name": "ឃុំសំបួរ",
                        "province_id": 1,
                        "province_identifier": "KH-1",
                        "district_id": 1,
                        "district_identifier": "0102",
                        "latitude": 13.435507,
                        "longitude": 103.209
                    },
                    {
                        "id": 11,
                        "identifier": "010211",
                        "en_name": "Soea",
                        "km_name": "ឃុំសឿ",
                        "province_id": 1,
                        "province_identifier": "KH-1",
                        "district_id": 1,
                        "district_identifier": "0102",
                        "latitude": 13.409474,
                        "longitude": 102.84
                    },
                    {
                        "id": 12,
                        "identifier": "010212",
                        "en_name": "Srah Reang",
                        "km_name": "ឃុំស្រះរាំង",
                        "province_id": 1,
                        "province_identifier": "KH-1",
                        "district_id": 1,
                        "district_identifier": "0102",
                        "latitude": 13.488107,
                        "longitude": 103.07
                    },
                    {
                        "id": 13,
                        "identifier": "010213",
                        "en_name": "Ta Lam",
                        "km_name": "ឃុំតាឡំ",
                        "province_id": 1,
                        "province_identifier": "KH-1",
                        "district_id": 1,
                        "district_identifier": "0102",
                        "latitude": 13.526232,
                        "longitude": 103.099
                    }
                ]
            },
            {
                "id": 2,
                "identifier": "0103",
                "en_name": "Phnom Srok",
                "km_name": "ស្រុកភ្នំស្រុក",
                "province_id": 1,
                "province_identifier": "KH-1",
                "latitude": 13.814077,
                "longitude": 103.392,
                "communes": [
                    {
                        "id": 14,
                        "identifier": "010301",
                        "en_name": "Nam Tau",
                        "km_name": "ឃុំណាំតៅ",
                        "province_id": 1,
                        "province_identifier": "KH-1",
                        "district_id": 2,
                        "district_identifier": "0103",
                        "latitude": 13.85,
                        "longitude": 103.4
                    },
                    {
                        "id": 15,
                        "identifier": "010302",
                        "en_name": "Paoy Char",
                        "km_name": "ឃុំប៉ោយចារ",
                        "province_id": 1,
                        "province_identifier": "KH-1",
                        "district_id": 2,
                        "district_identifier": "0103",
                        "latitude": 13.78507,
                        "longitude": 103.315
                    },
                    {
                        "id": 16,
                        "identifier": "010303",
                        "en_name": "Ponley",
                        "km_name": "ឃុំពន្លៃ",
                        "province_id": 1,
                        "province_identifier": "KH-1",
                        "district_id": 2,
                        "district_identifier": "0103",
                        "latitude": 13.771065,
                        "longitude": 103.225
                    },
                    {
                        "id": 17,
                        "identifier": "010304",
                        "en_name": "Spean Sraeng",
                        "km_name": "ឃុំស្ពានស្រែង",
                        "province_id": 1,
                        "province_identifier": "KH-1",
                        "district_id": 2,
                        "district_identifier": "0103",
                        "latitude": 13.700696,
                        "longitude": 103.41
                    },
                    {
                        "id": 18,
                        "identifier": "010305",
                        "en_name": "Srah Chik",
                        "km_name": "ឃុំស្រះជីក",
                        "province_id": 1,
                        "province_identifier": "KH-1",
                        "district_id": 2,
                        "district_identifier": "0103",
                        "latitude": 13.6243,
                        "longitude": 103.181
                    },
                    {
                        "id": 19,
                        "identifier": "010306",
                        "en_name": "Phnom Dei",
                        "km_name": "ឃុំភ្នំដី",
                        "province_id": 1,
                        "province_identifier": "KH-1",
                        "district_id": 2,
                        "district_identifier": "0103",
                        "latitude": 13.740386,
                        "longitude": 103.359
                    }
                ]
            },
            {
                "id": 3,
                "identifier": "0104",
                "en_name": "Preah Netr Preah",
                "km_name": "ស្រុកព្រះនេត្រព្រះ",
                "province_id": 1,
                "province_identifier": "KH-1",
                "latitude": 13.560562,
                "longitude": 103.268,
                "communes": [
                    {
                        "id": 20,
                        "identifier": "010401",
                        "en_name": "Chhnuor Mean Chey",
                        "km_name": "ឃុំឈ្នួរមានជ័យ",
                        "province_id": 1,
                        "province_identifier": "KH-1",
                        "district_id": 3,
                        "district_identifier": "0104",
                        "latitude": 13.630973,
                        "longitude": 103.109
                    },
                    {
                        "id": 21,
                        "identifier": "010402",
                        "en_name": "Chob Veari",
                        "km_name": "ឃុំជប់វារី",
                        "province_id": 1,
                        "province_identifier": "KH-1",
                        "district_id": 3,
                        "district_identifier": "0104",
                        "latitude": 13.62093,
                        "longitude": 103.183
                    },
                    {
                        "id": 22,
                        "identifier": "010403",
                        "en_name": "Phnom Lieb",
                        "km_name": "ឃុំភ្នំលៀប",
                        "province_id": 1,
                        "province_identifier": "KH-1",
                        "district_id": 3,
                        "district_identifier": "0104",
                        "latitude": 13.595937,
                        "longitude": 103.357
                    },
                    {
                        "id": 23,
                        "identifier": "010404",
                        "en_name": "Prasat",
                        "km_name": "ឃុំប្រាសាទ",
                        "province_id": 1,
                        "province_identifier": "KH-1",
                        "district_id": 3,
                        "district_identifier": "0104",
                        "latitude": 13.51717,
                        "longitude": 103.405
                    },
                    {
                        "id": 24,
                        "identifier": "010305",
                        "en_name": "Preah Netr Preah",
                        "km_name": "ឃុំព្រះនេត្រព្រះ",
                        "province_id": 1,
                        "province_identifier": "KH-1",
                        "district_id": 3,
                        "district_identifier": "0104",
                        "latitude": 13.62093,
                        "longitude": 103.183
                    },
                    {
                        "id": 25,
                        "identifier": "010406",
                        "en_name": "Rohal",
                        "km_name": "ឃុំរហាល",
                        "province_id": 1,
                        "province_identifier": "KH-1",
                        "district_id": 3,
                        "district_identifier": "0104",
                        "latitude": 13.619295,
                        "longitude": 103.225
                    },
                    {
                        "id": 26,
                        "identifier": "010407",
                        "en_name": "Tean Kam",
                        "km_name": "ឃុំទានកាំ",
                        "province_id": 1,
                        "province_identifier": "KH-1",
                        "district_id": 3,
                        "district_identifier": "0104",
                        "latitude": 13.697694,
                        "longitude": 103.241
                    },
                    {
                        "id": 27,
                        "identifier": "010408",
                        "en_name": "Tuek Chour",
                        "km_name": "ឃុំទឹកជោរ",
                        "province_id": 1,
                        "province_identifier": "KH-1",
                        "district_id": 3,
                        "district_identifier": "0104",
                        "latitude": 13.606949,
                        "longitude": 103.402
                    }
                ]
            },
            {
                "id": 4,
                "identifier": "0105",
                "en_name": "Ou Chrov",
                "km_name": "ស្រុកអូរជ្រៅ",
                "province_id": 1,
                "province_identifier": "KH-1",
                "latitude": 13.62797,
                "longitude": 102.811,
                "communes": [
                    {
                        "id": 28,
                        "identifier": "010501",
                        "en_name": "Changha",
                        "km_name": "ឃុំចង្ហា",
                        "province_id": 1,
                        "province_identifier": "KH-1",
                        "district_id": 4,
                        "district_identifier": "0105",
                        "latitude": 13.647989,
                        "longitude": 102.887
                    },
                    {
                        "id": 29,
                        "identifier": "010502",
                        "en_name": "Koub",
                        "km_name": "ឃុំកូប",
                        "province_id": 1,
                        "province_identifier": "KH-1",
                        "district_id": 4,
                        "district_identifier": "0105",
                        "latitude": 13.597605,
                        "longitude": 102.811
                    },
                    {
                        "id": 30,
                        "identifier": "010503",
                        "en_name": "Kuttasat",
                        "km_name": "ឃុំគុត្តសត",
                        "province_id": 1,
                        "province_identifier": "KH-1",
                        "district_id": 4,
                        "district_identifier": "0105",
                        "latitude": 13.585926,
                        "longitude": 102.752
                    },
                    {
                        "id": 31,
                        "identifier": "010504",
                        "en_name": "Nimitt",
                        "km_name": "ឃុំនិមិត្ត",
                        "province_id": 1,
                        "province_identifier": "KH-1",
                        "district_id": 4,
                        "district_identifier": "0105",
                        "latitude": 13.614957,
                        "longitude": 102.741
                    },
                    {
                        "id": 32,
                        "identifier": "010505",
                        "en_name": "Samraong",
                        "km_name": "ឃុំសំរោង",
                        "province_id": 1,
                        "province_identifier": "KH-1",
                        "district_id": 4,
                        "district_identifier": "0105",
                        "latitude": 13.561229,
                        "longitude": 102.825
                    },
                    {
                        "id": 33,
                        "identifier": "010506",
                        "en_name": "Souphi",
                        "km_name": "ឃុំសូភី",
                        "province_id": 1,
                        "province_identifier": "KH-1",
                        "district_id": 4,
                        "district_identifier": "0105",
                        "latitude": 13.639314,
                        "longitude": 102.832
                    },
                    {
                        "id": 34,
                        "identifier": "010507",
                        "en_name": "Soengh",
                        "km_name": "ឃុំសឹង្ហ",
                        "province_id": 1,
                        "province_identifier": "KH-1",
                        "district_id": 4,
                        "district_identifier": "0105",
                        "latitude": 13.702364,
                        "longitude": 102.859
                    },
                    {
                        "id": 35,
                        "identifier": "010508",
                        "en_name": "Paoy Paet",
                        "km_name": "ឃុំប៉ោយប៉ែត",
                        "province_id": 1,
                        "province_identifier": "KH-1",
                        "district_id": 4,
                        "district_identifier": "0105",
                        "latitude": 13.660666,
                        "longitude": 102.556
                    },
                    {
                        "id": 36,
                        "identifier": "010509",
                        "en_name": "Ou Bei Choan",
                        "km_name": "ឃុំអូរបីជាន់",
                        "province_id": 1,
                        "province_identifier": "KH-1",
                        "district_id": 4,
                        "district_identifier": "0105",
                        "latitude": 13.770398,
                        "longitude": 102.736
                    }
                ]
            },
            {
                "id": 5,
                "identifier": "0106",
                "en_name": "Serei Saophoan",
                "km_name": "ស្រុកសិរីសោភ័ណ",
                "province_id": 1,
                "province_identifier": "KH-1",
                "latitude": 13.587928,
                "longitude": 102.971,
                "communes": [
                    {
                        "id": 37,
                        "identifier": "010601",
                        "en_name": "Bos Sbov",
                        "km_name": "ឃុំបុស្បូវ",
                        "province_id": 1,
                        "province_identifier": "KH-1",
                        "district_id": 5,
                        "district_identifier": "0106",
                        "latitude": 13.650658,
                        "longitude": 103.041
                    },
                    {
                        "id": 38,
                        "identifier": "010602",
                        "en_name": "Kampong Svay",
                        "km_name": "ឃុំកំពង់ស្វាយ",
                        "province_id": 1,
                        "province_identifier": "KH-1",
                        "district_id": 5,
                        "district_identifier": "0106",
                        "latitude": 13.593267,
                        "longitude": 102.971
                    },
                    {
                        "id": 39,
                        "identifier": "010603",
                        "en_name": "koh Pong Satv",
                        "km_name": "ឃុំកោះពងសត្វ",
                        "province_id": 1,
                        "province_identifier": "KH-1",
                        "district_id": 5,
                        "district_identifier": "0106",
                        "latitude": 13.583256,
                        "longitude": 103.011
                    },
                    {
                        "id": 40,
                        "identifier": "010604",
                        "en_name": "Mkak",
                        "km_name": "ឃុំម្កាក់",
                        "province_id": 1,
                        "province_identifier": "KH-1",
                        "district_id": 5,
                        "district_identifier": "0106",
                        "latitude": 13.668005,
                        "longitude": 102.959
                    },
                    {
                        "id": 41,
                        "identifier": "010605",
                        "en_name": "Ou Ambel",
                        "km_name": "ឃុំអូរអំបិល",
                        "province_id": 1,
                        "province_identifier": "KH-1",
                        "district_id": 5,
                        "district_identifier": "0106",
                        "latitude": 13.583923,
                        "longitude": 102.958
                    },
                    {
                        "id": 42,
                        "identifier": "010606",
                        "en_name": "Phniet",
                        "km_name": "ឃុំភ្នៀត",
                        "province_id": 1,
                        "province_identifier": "KH-1",
                        "district_id": 5,
                        "district_identifier": "0106",
                        "latitude": 13.589596,
                        "longitude": 103.039
                    },
                    {
                        "id": 43,
                        "identifier": "010607",
                        "en_name": "Preah Ponlea",
                        "km_name": "ឃុំព្រះពន្លា",
                        "province_id": 1,
                        "province_identifier": "KH-1",
                        "district_id": 5,
                        "district_identifier": "0106",
                        "latitude": 13.585592,
                        "longitude": 102.984
                    },
                    {
                        "id": 44,
                        "identifier": "010608",
                        "en_name": "Tuek Thla",
                        "km_name": "ឃុំទឹកថ្លា",
                        "province_id": 1,
                        "province_identifier": "KH-1",
                        "district_id": 5,
                        "district_identifier": "0106",
                        "latitude": 13.582588,
                        "longitude": 102.936
                    }
                ]
            },
            {
                "id": 6,
                "identifier": "0107",
                "en_name": "Thma Puok",
                "km_name": "ស្រុកថ្មពួក",
                "province_id": 1,
                "province_identifier": "KH-1",
                "latitude": 14.012027,
                "longitude": 103.045,
                "communes": [
                    {
                        "id": 45,
                        "identifier": "010701",
                        "en_name": "Banteay Chhmar",
                        "km_name": "ឃុំបន្ទាយឆ្មារ",
                        "province_id": 1,
                        "province_identifier": "KH-1",
                        "district_id": 6,
                        "district_identifier": "0107",
                        "latitude": 14.065651,
                        "longitude": 103.105
                    },
                    {
                        "id": 46,
                        "identifier": "010702",
                        "en_name": "Kouk Romiet",
                        "km_name": "ឃុំគោករមៀត",
                        "province_id": 1,
                        "province_identifier": "KH-1",
                        "district_id": 6,
                        "district_identifier": "0107",
                        "latitude": 13.991041,
                        "longitude": 102.989
                    },
                    {
                        "id": 47,
                        "identifier": "010703",
                        "en_name": "Thmor Puok",
                        "km_name": "ឃុំថ្មពួក",
                        "province_id": 1,
                        "province_identifier": "KH-1",
                        "district_id": 6,
                        "district_identifier": "0107",
                        "latitude": 13.940482,
                        "longitude": 103.049
                    },
                    {
                        "id": 48,
                        "identifier": "010704",
                        "en_name": "Kouk Kakthen",
                        "km_name": "ឃុំគោកកឋិន",
                        "province_id": 1,
                        "province_identifier": "KH-1",
                        "district_id": 6,
                        "district_identifier": "0107",
                        "latitude": 13.940398,
                        "longitude": 103.047
                    },
                    {
                        "id": 49,
                        "identifier": "010705",
                        "en_name": "Kumru",
                        "km_name": "ឃុំគំរូ",
                        "province_id": 1,
                        "province_identifier": "KH-1",
                        "district_id": 6,
                        "district_identifier": "0107",
                        "latitude": 13.936733,
                        "longitude": 103.057
                    },
                    {
                        "id": 50,
                        "identifier": "010706",
                        "en_name": "Phum Thmey",
                        "km_name": "ឃុំភូមិថ្មី",
                        "province_id": 1,
                        "province_identifier": "KH-1",
                        "district_id": 6,
                        "district_identifier": "0107",
                        "latitude": 13.885412,
                        "longitude": 103.071
                    }
                ]
            },
            {
                "id": 7,
                "identifier": "0108",
                "en_name": "Svay Chek",
                "km_name": "ស្រុកស្វាយចេក",
                "province_id": 1,
                "province_identifier": "KH-1",
                "latitude": 13.80314,
                "longitude": 102.958,
                "communes": [
                    {
                        "id": 51,
                        "identifier": "010801",
                        "en_name": "Phkoam",
                        "km_name": "ឃុំផ្គាំ",
                        "province_id": 1,
                        "province_identifier": "KH-1",
                        "district_id": 7,
                        "district_identifier": "0108",
                        "latitude": 13.829746,
                        "longitude": 103.127
                    },
                    {
                        "id": 52,
                        "identifier": "010802",
                        "en_name": "Sarongk",
                        "km_name": "ឃុំសារង្គ",
                        "province_id": 1,
                        "province_identifier": "KH-1",
                        "district_id": 7,
                        "district_identifier": "0108",
                        "latitude": 13.749056,
                        "longitude": 103.115
                    },
                    {
                        "id": 53,
                        "identifier": "010803",
                        "en_name": "Sla Kram",
                        "km_name": "ឃុំស្លក្រាម",
                        "province_id": 1,
                        "province_identifier": "KH-1",
                        "district_id": 7,
                        "district_identifier": "0108",
                        "latitude": 13.745054,
                        "longitude": 102.964
                    },
                    {
                        "id": 54,
                        "identifier": "010804",
                        "en_name": "Svay Chek",
                        "km_name": "ឃុំស្វាយចេក",
                        "province_id": 1,
                        "province_identifier": "KH-1",
                        "district_id": 7,
                        "district_identifier": "0108",
                        "latitude": 13.798074,
                        "longitude": 102.956
                    },
                    {
                        "id": 55,
                        "identifier": "010805",
                        "en_name": "Ta Baen",
                        "km_name": "ឃុំតាបែន",
                        "province_id": 1,
                        "province_identifier": "KH-1",
                        "district_id": 7,
                        "district_identifier": "0108",
                        "latitude": 13.7754,
                        "longitude": 102.958
                    },
                    {
                        "id": 56,
                        "identifier": "010806",
                        "en_name": "Ta Phou",
                        "km_name": "ឃុំតាផូ",
                        "province_id": 1,
                        "province_identifier": "KH-1",
                        "district_id": 7,
                        "district_identifier": "0108",
                        "latitude": 13.769398,
                        "longitude": 103.047
                    },
                    {
                        "id": 57,
                        "identifier": "010807",
                        "en_name": "Treas",
                        "km_name": "ឃុំទ្រាស",
                        "province_id": 1,
                        "province_identifier": "KH-1",
                        "district_id": 7,
                        "district_identifier": "0108",
                        "latitude": 13.855081,
                        "longitude": 103.001
                    },
                    {
                        "id": 58,
                        "identifier": "010808",
                        "en_name": "Roluos",
                        "km_name": "ឃុំរលួស",
                        "province_id": 1,
                        "province_identifier": "KH-1",
                        "district_id": 7,
                        "district_identifier": "0108",
                        "latitude": 13.800407,
                        "longitude": 102.962
                    }
                ]
            },
            {
                "id": 8,
                "identifier": "0109",
                "en_name": "Malaii",
                "km_name": "ស្រុកម៉ាឡៃ",
                "province_id": 1,
                "province_identifier": "KH-1",
                "latitude": 13.516502,
                "longitude": 102.537,
                "communes": [
                    {
                        "id": 59,
                        "identifier": "010901",
                        "en_name": "Boeng Beng",
                        "km_name": "ឃុំបឹងបេង",
                        "province_id": 1,
                        "province_identifier": "KH-1",
                        "district_id": 8,
                        "district_identifier": "0109",
                        "latitude": 13.527184,
                        "longitude": 102.353
                    },
                    {
                        "id": 60,
                        "identifier": "010902",
                        "en_name": "Malai",
                        "km_name": "ឃុំម៉ាឡៃ",
                        "province_id": 1,
                        "province_identifier": "KH-1",
                        "district_id": 8,
                        "district_identifier": "0109",
                        "latitude": 13.56757,
                        "longitude": 102.368
                    },
                    {
                        "id": 61,
                        "identifier": "010903",
                        "en_name": "Ou Sampor",
                        "km_name": "ឃុំអូរសំព័រ",
                        "province_id": 1,
                        "province_identifier": "KH-1",
                        "district_id": 8,
                        "district_identifier": "0109",
                        "latitude": 13.561897,
                        "longitude": 102.488
                    },
                    {
                        "id": 62,
                        "identifier": "010904",
                        "en_name": "Ou Sralau",
                        "km_name": "ឃុំអូរស្រឡៅ",
                        "province_id": 1,
                        "province_identifier": "KH-1",
                        "district_id": 8,
                        "district_identifier": "0109",
                        "latitude": 13.560562,
                        "longitude": 102.414
                    },
                    {
                        "id": 63,
                        "identifier": "010905",
                        "en_name": "Tuol Pongro",
                        "km_name": "ឃុំទួលពង្រ",
                        "province_id": 1,
                        "province_identifier": "KH-1",
                        "district_id": 8,
                        "district_identifier": "0109",
                        "latitude": 13.563565,
                        "longitude": 102.542
                    },
                    {
                        "id": 64,
                        "identifier": "010906",
                        "en_name": "Ta Kong",
                        "km_name": "ឃុំតាគង់",
                        "province_id": 1,
                        "province_identifier": "KH-1",
                        "district_id": 8,
                        "district_identifier": "0109",
                        "latitude": 13.492133,
                        "longitude": 102.732
                    }
                ]
            }
        ]
    },
    {
        "id": 2,
        "identifier": "KH-2",
        "en_name": "Battambang",
        "km_name": "ខេត្តបាត់ដំបង",
        "latitude": 13.090179,
        "longitude": 103.203,
        "districts": [
            {
                "id": 9,
                "identifier": "0201",
                "en_name": "Banan",
                "km_name": "ស្រុកបាណន់",
                "province_id": 2,
                "province_identifier": "KH-2",
                "latitude": 12.975118,
                "longitude": 103.056,
                "communes": [
                    {
                        "id": 65,
                        "identifier": "020101",
                        "en_name": "Kantueu Muoy",
                        "km_name": "ឃុំកន្ទឺ ១",
                        "province_id": 2,
                        "province_identifier": "KH-2",
                        "district_id": 9,
                        "district_identifier": "0201",
                        "latitude": 12.908198,
                        "longitude": 103.149
                    },
                    {
                        "id": 66,
                        "identifier": "020102",
                        "en_name": "Kantueu Pir",
                        "km_name": "ឃុំកន្ទឺ ២",
                        "province_id": 2,
                        "province_identifier": "KH-2",
                        "district_id": 9,
                        "district_identifier": "0201",
                        "latitude": 12.928945,
                        "longitude": 103.131
                    },
                    {
                        "id": 67,
                        "identifier": "020103",
                        "en_name": "Bay Damram",
                        "km_name": "ឃុំបាយដំរាំ",
                        "province_id": 2,
                        "province_identifier": "KH-2",
                        "district_id": 9,
                        "district_identifier": "0201",
                        "latitude": 12.990173,
                        "longitude": 103.162
                    },
                    {
                        "id": 68,
                        "identifier": "020104",
                        "en_name": "Chheu Teal",
                        "km_name": "ឃុំឈើទាល",
                        "province_id": 2,
                        "province_identifier": "KH-2",
                        "district_id": 9,
                        "district_identifier": "0201",
                        "latitude": 13.001213,
                        "longitude": 103.158
                    },
                    {
                        "id": 69,
                        "identifier": "020105",
                        "en_name": "Chaeng Mean Chey",
                        "km_name": "ឃុំចែងមានជ័យ",
                        "province_id": 2,
                        "province_identifier": "KH-2",
                        "district_id": 9,
                        "district_identifier": "0201",
                        "latitude": 12.966085,
                        "longitude": 103.051
                    },
                    {
                        "id": 70,
                        "identifier": "020106",
                        "en_name": "Phnom Sampov",
                        "km_name": "ឃុំភ្នំសំពៅ",
                        "province_id": 2,
                        "province_identifier": "KH-2",
                        "district_id": 9,
                        "district_identifier": "0201",
                        "latitude": 13.026635,
                        "longitude": 103.098
                    },
                    {
                        "id": 71,
                        "identifier": "020107",
                        "en_name": "Snoeng",
                        "km_name": "ឃុំស្នឹង",
                        "province_id": 2,
                        "province_identifier": "KH-2",
                        "district_id": 9,
                        "district_identifier": "0201",
                        "latitude": 12.96642,
                        "longitude": 103.051
                    },
                    {
                        "id": 72,
                        "identifier": "020108",
                        "en_name": "Ta Kream",
                        "km_name": "ឃុំតាគ្រាម",
                        "province_id": 2,
                        "province_identifier": "KH-2",
                        "district_id": 9,
                        "district_identifier": "0201",
                        "latitude": 13.089845,
                        "longitude": 103.022
                    }
                ]
            },
            {
                "id": 10,
                "identifier": "0202",
                "en_name": "Thma Koul",
                "km_name": "ស្រុកថ្មគោល",
                "province_id": 2,
                "province_identifier": "KH-2",
                "latitude": 13.26654,
                "longitude": 103.088,
                "communes": [
                    {
                        "id": 73,
                        "identifier": "020201",
                        "en_name": "Ta Pung",
                        "km_name": "ឃុំតាពូង",
                        "province_id": 2,
                        "province_identifier": "KH-2",
                        "district_id": 10,
                        "district_identifier": "0202",
                        "latitude": 13.258326,
                        "longitude": 103.091
                    },
                    {
                        "id": 74,
                        "identifier": "020202",
                        "en_name": "Ta Meun",
                        "km_name": "ឃុំតាម៉ឺន",
                        "province_id": 2,
                        "province_identifier": "KH-2",
                        "district_id": 10,
                        "district_identifier": "0202",
                        "latitude": 13.26654,
                        "longitude": 103.088
                    },
                    {
                        "id": 75,
                        "identifier": "020203",
                        "en_name": "Ou Ta Ki",
                        "km_name": "ឃុំអូរតាគី",
                        "province_id": 2,
                        "province_identifier": "KH-2",
                        "district_id": 10,
                        "district_identifier": "0202",
                        "latitude": 13.141672,
                        "longitude": 103.118
                    },
                    {
                        "id": 76,
                        "identifier": "020204",
                        "en_name": "Chrey",
                        "km_name": "ឃុំជ្រៃ",
                        "province_id": 2,
                        "province_identifier": "KH-2",
                        "district_id": 10,
                        "district_identifier": "0202",
                        "latitude": 13.108236,
                        "longitude": 103.139
                    },
                    {
                        "id": 77,
                        "identifier": "020205",
                        "en_name": "Anlong Run",
                        "km_name": "ឃុំអន្លង់រុន",
                        "province_id": 2,
                        "province_identifier": "KH-2",
                        "district_id": 10,
                        "district_identifier": "0202",
                        "latitude": 13.165408,
                        "longitude": 103.022
                    },
                    {
                        "id": 78,
                        "identifier": "020206",
                        "en_name": "Chrouy Sdau",
                        "km_name": "ឃុំជ្រោយស្តៅ",
                        "province_id": 2,
                        "province_identifier": "KH-2",
                        "district_id": 10,
                        "district_identifier": "0202",
                        "latitude": 13.332166,
                        "longitude": 103.08
                    },
                    {
                        "id": 79,
                        "identifier": "020207",
                        "en_name": "Boeng Pring",
                        "km_name": "ឃុំបឹងព្រីង",
                        "province_id": 2,
                        "province_identifier": "KH-2",
                        "district_id": 10,
                        "district_identifier": "0202",
                        "latitude": 13.366239,
                        "longitude": 103.037
                    },
                    {
                        "id": 80,
                        "identifier": "020208",
                        "en_name": "Kouk Khmum",
                        "km_name": "ឃុំគោកឃ្មុំ",
                        "province_id": 2,
                        "province_identifier": "KH-2",
                        "district_id": 10,
                        "district_identifier": "0202",
                        "latitude": 13.271024,
                        "longitude": 103.057
                    },
                    {
                        "id": 81,
                        "identifier": "020209",
                        "en_name": "Bansay Traeng",
                        "km_name": "ឃុំបន្សាយត្រែង",
                        "province_id": 2,
                        "province_identifier": "KH-2",
                        "district_id": 10,
                        "district_identifier": "0202",
                        "latitude": 13.263004,
                        "longitude": 103.029
                    },
                    {
                        "id": 82,
                        "identifier": "020210",
                        "en_name": "Rung Chrey",
                        "km_name": "ឃុំរូងជ្រៃ",
                        "province_id": 2,
                        "province_identifier": "KH-2",
                        "district_id": 10,
                        "district_identifier": "0202",
                        "latitude": 13.259328,
                        "longitude": 102.988
                    }
                ]
            },
            {
                "id": 11,
                "identifier": "0203",
                "en_name": "Battambang",
                "km_name": "ស្រុកក្រុងបាត់ដំបង",
                "province_id": 2,
                "province_identifier": "KH-2",
                "latitude": 13.095864,
                "longitude": 103.199,
                "communes": [
                    {
                        "id": 83,
                        "identifier": "020301",
                        "en_name": "Tuol Ta Aek",
                        "km_name": "សង្កាត់ទួលតាឯក",
                        "province_id": 2,
                        "province_identifier": "KH-2",
                        "district_id": 11,
                        "district_identifier": "0203",
                        "latitude": 13.09461,
                        "longitude": 103.189
                    },
                    {
                        "id": 84,
                        "identifier": "020302",
                        "en_name": "Prek Preah Sdach",
                        "km_name": "សង្កាត់ព្រែកព្រះស្តេច",
                        "province_id": 2,
                        "province_identifier": "KH-2",
                        "district_id": 11,
                        "district_identifier": "0203",
                        "latitude": 13.085163,
                        "longitude": 103.207
                    },
                    {
                        "id": 85,
                        "identifier": "020303",
                        "en_name": "Rottanak",
                        "km_name": "សង្កាត់រតនៈ",
                        "province_id": 2,
                        "province_identifier": "KH-2",
                        "district_id": 11,
                        "district_identifier": "0203",
                        "latitude": 13.098539,
                        "longitude": 103.205
                    },
                    {
                        "id": 86,
                        "identifier": "020304",
                        "en_name": "Chamkar Samraong",
                        "km_name": "សង្កាត់ចំការសំរោង",
                        "province_id": 2,
                        "province_identifier": "KH-2",
                        "district_id": 11,
                        "district_identifier": "0203",
                        "latitude": 13.108236,
                        "longitude": 103.201
                    },
                    {
                        "id": 87,
                        "identifier": "020305",
                        "en_name": "Sla Kaet",
                        "km_name": "សង្កាត់ស្លាកែត",
                        "province_id": 2,
                        "province_identifier": "KH-2",
                        "district_id": 11,
                        "district_identifier": "0203",
                        "latitude": 13.120441,
                        "longitude": 103.213
                    },
                    {
                        "id": 88,
                        "identifier": "020306",
                        "en_name": "Kdol Doun Teav",
                        "km_name": "សង្កាត់ក្តុលដូនទាវ",
                        "province_id": 2,
                        "province_identifier": "KH-2",
                        "district_id": 11,
                        "district_identifier": "0203",
                        "latitude": 13.127629,
                        "longitude": 103.211
                    },
                    {
                        "id": 89,
                        "identifier": "020307",
                        "en_name": "Ou Mal",
                        "km_name": "សង្កាត់អូរម៉ាល់",
                        "province_id": 2,
                        "province_identifier": "KH-2",
                        "district_id": 11,
                        "district_identifier": "0203",
                        "latitude": 13.062088,
                        "longitude": 103.16
                    },
                    {
                        "id": 90,
                        "identifier": "020308",
                        "en_name": "Voat Kor",
                        "km_name": "សង្កាត់វត្តគរ",
                        "province_id": 2,
                        "province_identifier": "KH-2",
                        "district_id": 11,
                        "district_identifier": "0203",
                        "latitude": 13.068442,
                        "longitude": 103.199
                    },
                    {
                        "id": 91,
                        "identifier": "020309",
                        "en_name": "Ou Char",
                        "km_name": "សង្កាត់អូរចារ",
                        "province_id": 2,
                        "province_identifier": "KH-2",
                        "district_id": 11,
                        "district_identifier": "0203",
                        "latitude": 13.104224,
                        "longitude": 103.189
                    },
                    {
                        "id": 92,
                        "identifier": "020310",
                        "en_name": "Svay Pao",
                        "km_name": "សង្កាត់ស្វាយប៉ោ",
                        "province_id": 2,
                        "province_identifier": "KH-2",
                        "district_id": 11,
                        "district_identifier": "0203",
                        "latitude": 13.099041,
                        "longitude": 103.197
                    }
                ]
            },
            {
                "id": 12,
                "identifier": "0204",
                "en_name": "Bavel",
                "km_name": "ស្រុកបវេល",
                "province_id": 2,
                "province_identifier": "KH-2",
                "latitude": 13.247966,
                "longitude": 102.827,
                "communes": [
                    {
                        "id": 93,
                        "identifier": "020401",
                        "en_name": "Bavel",
                        "km_name": "ឃុំបវេល",
                        "province_id": 2,
                        "province_identifier": "KH-2",
                        "district_id": 12,
                        "district_identifier": "0204",
                        "latitude": 13.255318,
                        "longitude": 102.875
                    },
                    {
                        "id": 94,
                        "identifier": "020402",
                        "en_name": "Khnach Romeas",
                        "km_name": "ឃុំខ្នាចរមាស",
                        "province_id": 2,
                        "province_identifier": "KH-2",
                        "district_id": 12,
                        "district_identifier": "0204",
                        "latitude": 13.262002,
                        "longitude": 102.95
                    },
                    {
                        "id": 95,
                        "identifier": "020403",
                        "en_name": "Lvea",
                        "km_name": "ឃុំល្វា",
                        "province_id": 2,
                        "province_identifier": "KH-2",
                        "district_id": 12,
                        "district_identifier": "0204",
                        "latitude": 13.352878,
                        "longitude": 102.91
                    },
                    {
                        "id": 96,
                        "identifier": "020404",
                        "en_name": "Prey Khpos",
                        "km_name": "ឃុំព្រៃខ្ពស់",
                        "province_id": 2,
                        "province_identifier": "KH-2",
                        "district_id": 12,
                        "district_identifier": "0204",
                        "latitude": 13.343524,
                        "longitude": 102.904
                    },
                    {
                        "id": 97,
                        "identifier": "020405",
                        "en_name": "Ampil Pram Deum",
                        "km_name": "ឃុំអំពិលប្រាំដើម",
                        "province_id": 2,
                        "province_identifier": "KH-2",
                        "district_id": 12,
                        "district_identifier": "0204",
                        "latitude": 13.255652,
                        "longitude": 102.774
                    },
                    {
                        "id": 98,
                        "identifier": "020406",
                        "en_name": "Kdol Ta Haen",
                        "km_name": "ឃុំក្តុលតាហែន",
                        "province_id": 2,
                        "province_identifier": "KH-2",
                        "district_id": 12,
                        "district_identifier": "0204",
                        "latitude": 13.213208,
                        "longitude": 102.852
                    }
                ]
            },
            {
                "id": 13,
                "identifier": "0205",
                "en_name": "Ek Phnom",
                "km_name": "ស្រុកឯកភ្នំ",
                "province_id": 2,
                "province_identifier": "KH-2",
                "latitude": 13.281382,
                "longitude": 103.429,
                "communes": [
                    {
                        "id": 99,
                        "identifier": "020501",
                        "en_name": "Prek Noren",
                        "km_name": "ឃុំព្រែកនរិន្ទ",
                        "province_id": 2,
                        "province_identifier": "KH-2",
                        "district_id": 13,
                        "district_identifier": "0205",
                        "latitude": 13.172094,
                        "longitude": 103.241
                    },
                    {
                        "id": 100,
                        "identifier": "020502",
                        "en_name": "Samraong Khnong",
                        "km_name": "ឃុំសំរោងក្នុង",
                        "province_id": 2,
                        "province_identifier": "KH-2",
                        "district_id": 13,
                        "district_identifier": "0205",
                        "latitude": 13.136657,
                        "longitude": 103.221
                    },
                    {
                        "id": 101,
                        "identifier": "020503",
                        "en_name": "Prek Khpop",
                        "km_name": "ឃុំព្រែកខ្ពប",
                        "province_id": 2,
                        "province_identifier": "KH-2",
                        "district_id": 13,
                        "district_identifier": "0205",
                        "latitude": 13.156215,
                        "longitude": 103.229
                    },
                    {
                        "id": 102,
                        "identifier": "020504",
                        "en_name": "Prek Loung",
                        "km_name": "ឃុំព្រែកហ្លួង",
                        "province_id": 2,
                        "province_identifier": "KH-2",
                        "district_id": 13,
                        "district_identifier": "0205",
                        "latitude": 13.172094,
                        "longitude": 103.242
                    },
                    {
                        "id": 103,
                        "identifier": "020505",
                        "en_name": "Peam Aek",
                        "km_name": "ឃុំពាមឯក",
                        "province_id": 2,
                        "province_identifier": "KH-2",
                        "district_id": 13,
                        "district_identifier": "0205",
                        "latitude": 13.149696,
                        "longitude": 103.212
                    },
                    {
                        "id": 104,
                        "identifier": "020506",
                        "en_name": "Prey Chas",
                        "km_name": "ឃុំព្រៃចាស់",
                        "province_id": 2,
                        "province_identifier": "KH-2",
                        "district_id": 13,
                        "district_identifier": "0205",
                        "latitude": 13.313792,
                        "longitude": 103.403
                    },
                    {
                        "id": 105,
                        "identifier": "020507",
                        "en_name": "koh Chi Veang",
                        "km_name": "ឃុំកោះជីវាំង",
                        "province_id": 2,
                        "province_identifier": "KH-2",
                        "district_id": 13,
                        "district_identifier": "0205",
                        "latitude": 13.233261,
                        "longitude": 103.656
                    }
                ]
            },
            {
                "id": 14,
                "identifier": "0206",
                "en_name": "Moung Ruessei",
                "km_name": "ស្រុកមោងឫស្សី",
                "province_id": 2,
                "province_identifier": "KH-2",
                "latitude": 12.773634,
                "longitude": 103.449,
                "communes": [
                    {
                        "id": 106,
                        "identifier": "020601",
                        "en_name": "Moung",
                        "km_name": "ឃុំមោង",
                        "province_id": 2,
                        "province_identifier": "KH-2",
                        "district_id": 14,
                        "district_identifier": "0206",
                        "latitude": 12.768946,
                        "longitude": 103.437
                    },
                    {
                        "id": 107,
                        "identifier": "020602",
                        "en_name": "Kea",
                        "km_name": "ឃុំគារ",
                        "province_id": 2,
                        "province_identifier": "KH-2",
                        "district_id": 14,
                        "district_identifier": "0206",
                        "latitude": 12.762919,
                        "longitude": 103.459
                    },
                    {
                        "id": 108,
                        "identifier": "020603",
                        "en_name": "Prey Svay",
                        "km_name": "ឃុំព្រៃស្វាយ",
                        "province_id": 2,
                        "province_identifier": "KH-2",
                        "district_id": 14,
                        "district_identifier": "0206",
                        "latitude": 12.723405,
                        "longitude": 103.496
                    },
                    {
                        "id": 109,
                        "identifier": "020604",
                        "en_name": "Roeussey Krang",
                        "km_name": "ឃុំឫស្សីក្រាំង",
                        "province_id": 2,
                        "province_identifier": "KH-2",
                        "district_id": 14,
                        "district_identifier": "0206",
                        "latitude": 12.702641,
                        "longitude": 103.6
                    },
                    {
                        "id": 110,
                        "identifier": "020605",
                        "en_name": "Chrey",
                        "km_name": "ឃុំជ្រៃ",
                        "province_id": 2,
                        "province_identifier": "KH-2",
                        "district_id": 14,
                        "district_identifier": "0206",
                        "latitude": 12.781,
                        "longitude": 103.469
                    },
                    {
                        "id": 111,
                        "identifier": "020606",
                        "en_name": "Ta Los",
                        "km_name": "ឃុំតាលាស់",
                        "province_id": 2,
                        "province_identifier": "KH-2",
                        "district_id": 14,
                        "district_identifier": "0206",
                        "latitude": 12.805441,
                        "longitude": 103.458
                    },
                    {
                        "id": 112,
                        "identifier": "020607",
                        "en_name": "Karkos",
                        "km_name": "ឃុំកកោះ",
                        "province_id": 2,
                        "province_identifier": "KH-2",
                        "district_id": 14,
                        "district_identifier": "0206",
                        "latitude": 12.844607,
                        "longitude": 103.396
                    },
                    {
                        "id": 113,
                        "identifier": "020608",
                        "en_name": "Prey Touch",
                        "km_name": "ឃុំព្រៃតូច",
                        "province_id": 2,
                        "province_identifier": "KH-2",
                        "district_id": 14,
                        "district_identifier": "0206",
                        "latitude": 12.897489,
                        "longitude": 103.369
                    },
                    {
                        "id": 114,
                        "identifier": "020609",
                        "en_name": "Robos Mongkul",
                        "km_name": "ឃុំរបស់មង្គល",
                        "province_id": 2,
                        "province_identifier": "KH-2",
                        "district_id": 14,
                        "district_identifier": "0206",
                        "latitude": 12.743498,
                        "longitude": 103.44
                    },
                    {
                        "id": 115,
                        "identifier": "020610",
                        "en_name": "Prek Chik",
                        "km_name": "ឃុំព្រែកជីក",
                        "province_id": 2,
                        "province_identifier": "KH-2",
                        "district_id": 14,
                        "district_identifier": "0206",
                        "latitude": 12.659433,
                        "longitude": 103.412
                    },
                    {
                        "id": 116,
                        "identifier": "020611",
                        "en_name": "Prey Tralach",
                        "km_name": "ឃុំព្រៃត្រឡាច",
                        "province_id": 2,
                        "province_identifier": "KH-2",
                        "district_id": 14,
                        "district_identifier": "0206",
                        "latitude": 12.57802,
                        "longitude": 103.455
                    }
                ]
            },
            {
                "id": 15,
                "identifier": "0207",
                "en_name": "Rotanak Mondol",
                "km_name": "ស្រុករតនមណ្ឌល",
                "province_id": 2,
                "province_identifier": "KH-2",
                "latitude": 12.84126,
                "longitude": 102.912,
                "communes": [
                    {
                        "id": 117,
                        "identifier": "020701",
                        "en_name": "Sdav",
                        "km_name": "ឃុំស្តៅ",
                        "province_id": 2,
                        "province_identifier": "KH-2",
                        "district_id": 15,
                        "district_identifier": "0207",
                        "latitude": 12.889457,
                        "longitude": 102.975
                    },
                    {
                        "id": 118,
                        "identifier": "020702",
                        "en_name": "Anderk Haeb",
                        "km_name": "ឃុំអណ្តើកហែប",
                        "province_id": 2,
                        "province_identifier": "KH-2",
                        "district_id": 15,
                        "district_identifier": "0207",
                        "latitude": 12.863017,
                        "longitude": 102.975
                    },
                    {
                        "id": 119,
                        "identifier": "020703",
                        "en_name": "Plov Meas",
                        "km_name": "ឃុំផ្លូវមាស",
                        "province_id": 2,
                        "province_identifier": "KH-2",
                        "district_id": 15,
                        "district_identifier": "0207",
                        "latitude": 12.805775,
                        "longitude": 102.899
                    },
                    {
                        "id": 120,
                        "identifier": "020704",
                        "en_name": "Traeng",
                        "km_name": "ឃុំត្រែង",
                        "province_id": 2,
                        "province_identifier": "KH-2",
                        "district_id": 15,
                        "district_identifier": "0207",
                        "latitude": 12.836239,
                        "longitude": 102.895
                    }
                ]
            },
            {
                "id": 16,
                "identifier": "0208",
                "en_name": "Sangkae",
                "km_name": "ស្រុកសង្កែ",
                "province_id": 2,
                "province_identifier": "KH-2",
                "latitude": 13.061419,
                "longitude": 103.41,
                "communes": [
                    {
                        "id": 121,
                        "identifier": "020801",
                        "en_name": "Anlong Vil",
                        "km_name": "ឃុំអន្លង់វិល",
                        "province_id": 2,
                        "province_identifier": "KH-2",
                        "district_id": 16,
                        "district_identifier": "0208",
                        "latitude": 13.082488,
                        "longitude": 103.235
                    },
                    {
                        "id": 122,
                        "identifier": "020802",
                        "en_name": "Norea",
                        "km_name": "ឃុំនរា",
                        "province_id": 2,
                        "province_identifier": "KH-2",
                        "district_id": 16,
                        "district_identifier": "0208",
                        "latitude": 13.108571,
                        "longitude": 103.234
                    },
                    {
                        "id": 123,
                        "identifier": "020803",
                        "en_name": "Ta Pun",
                        "km_name": "ឃុំតាប៉ុន",
                        "province_id": 2,
                        "province_identifier": "KH-2",
                        "district_id": 16,
                        "district_identifier": "0208",
                        "latitude": 13.113252,
                        "longitude": 103.289
                    },
                    {
                        "id": 124,
                        "identifier": "020804",
                        "en_name": "Rokar",
                        "km_name": "ឃុំរកា",
                        "province_id": 2,
                        "province_identifier": "KH-2",
                        "district_id": 16,
                        "district_identifier": "0208",
                        "latitude": 13.088507,
                        "longitude": 103.279
                    },
                    {
                        "id": 125,
                        "identifier": "020805",
                        "en_name": "Kampong Preah",
                        "km_name": "ឃុំកំពង់ព្រះ",
                        "province_id": 2,
                        "province_identifier": "KH-2",
                        "district_id": 16,
                        "district_identifier": "0208",
                        "latitude": 13.121945,
                        "longitude": 103.319
                    },
                    {
                        "id": 126,
                        "identifier": "020806",
                        "en_name": "Kampong Preang",
                        "km_name": "ឃុំកំពង់ព្រៀង",
                        "province_id": 2,
                        "province_identifier": "KH-2",
                        "district_id": 16,
                        "district_identifier": "0208",
                        "latitude": 12.951029,
                        "longitude": 103.345
                    },
                    {
                        "id": 127,
                        "identifier": "020807",
                        "en_name": "Reang Kesey",
                        "km_name": "ឃុំរាំងកេសី",
                        "province_id": 2,
                        "province_identifier": "KH-2",
                        "district_id": 16,
                        "district_identifier": "0208",
                        "latitude": 12.966754,
                        "longitude": 103.256
                    },
                    {
                        "id": 128,
                        "identifier": "020808",
                        "en_name": "Ou Dambang 1",
                        "km_name": "ឃុំអូរដំបង ១",
                        "province_id": 2,
                        "province_identifier": "KH-2",
                        "district_id": 16,
                        "district_identifier": "0208",
                        "latitude": 13.068108,
                        "longitude": 103.205
                    },
                    {
                        "id": 129,
                        "identifier": "020809",
                        "en_name": "Ou Dambang 2",
                        "km_name": "ឃុំអូរដំបង ២",
                        "province_id": 2,
                        "province_identifier": "KH-2",
                        "district_id": 16,
                        "district_identifier": "0208",
                        "latitude": 13.067105,
                        "longitude": 103.23
                    },
                    {
                        "id": 130,
                        "identifier": "020810",
                        "en_name": "Wat Tamem",
                        "km_name": "ឃុំវត្តតាមិម",
                        "province_id": 2,
                        "province_identifier": "KH-2",
                        "district_id": 16,
                        "district_identifier": "0208",
                        "latitude": 13.036,
                        "longitude": 103.201
                    }
                ]
            },
            {
                "id": 17,
                "identifier": "0209",
                "en_name": "Samlout",
                "km_name": "ស្រុកសំឡូត",
                "province_id": 2,
                "province_identifier": "KH-2",
                "latitude": 12.612867,
                "longitude": 102.859,
                "communes": [
                    {
                        "id": 131,
                        "identifier": "020901",
                        "en_name": "Sung",
                        "km_name": "ឃុំស៊ុង",
                        "province_id": 2,
                        "province_identifier": "KH-2",
                        "district_id": 17,
                        "district_identifier": "0209",
                        "latitude": 12.584722,
                        "longitude": 102.766
                    },
                    {
                        "id": 132,
                        "identifier": "020902",
                        "en_name": "Mean Chey",
                        "km_name": "ឃុំមានជ័យ",
                        "province_id": 2,
                        "province_identifier": "KH-2",
                        "district_id": 17,
                        "district_identifier": "0209",
                        "latitude": 12.726754,
                        "longitude": 102.772
                    },
                    {
                        "id": 133,
                        "identifier": "020903",
                        "en_name": "Samlout",
                        "km_name": "ឃុំសំឡូត",
                        "province_id": 2,
                        "province_identifier": "KH-2",
                        "district_id": 17,
                        "district_identifier": "0209",
                        "latitude": 12.649718,
                        "longitude": 102.767
                    },
                    {
                        "id": 134,
                        "identifier": "020904",
                        "en_name": "Kampong Lpov",
                        "km_name": "ឃុំកំពង់ល្ពៅ",
                        "province_id": 2,
                        "province_identifier": "KH-2",
                        "district_id": 17,
                        "district_identifier": "0209",
                        "latitude": 12.550542,
                        "longitude": 102.861
                    },
                    {
                        "id": 135,
                        "identifier": "020905",
                        "en_name": "Ou Samril",
                        "km_name": "ឃុំអូរសំរិល",
                        "province_id": 2,
                        "province_identifier": "KH-2",
                        "district_id": 17,
                        "district_identifier": "0209",
                        "latitude": 12.704985,
                        "longitude": 102.949
                    },
                    {
                        "id": 136,
                        "identifier": "020906",
                        "en_name": "Ta Toak",
                        "km_name": "ឃុំតាតោក",
                        "province_id": 2,
                        "province_identifier": "KH-2",
                        "district_id": 17,
                        "district_identifier": "0209",
                        "latitude": 12.462726,
                        "longitude": 102.814
                    },
                    {
                        "id": 137,
                        "identifier": "020907",
                        "en_name": "Ta Sanh",
                        "km_name": "ឃុំតាសាញ",
                        "province_id": 2,
                        "province_identifier": "KH-2",
                        "district_id": 17,
                        "district_identifier": "0209",
                        "latitude": 12.597455,
                        "longitude": 102.855
                    }
                ]
            },
            {
                "id": 18,
                "identifier": "0210",
                "en_name": "Sampov Lun",
                "km_name": "ស្រុកសំពៅលូន",
                "province_id": 2,
                "province_identifier": "KH-2",
                "latitude": 13.420679,
                "longitude": 102.546,
                "communes": [
                    {
                        "id": 138,
                        "identifier": "021001",
                        "en_name": "Angkor Ban",
                        "km_name": "ឃុំអង្គរបាន",
                        "province_id": 2,
                        "province_identifier": "KH-2",
                        "district_id": 18,
                        "district_identifier": "0210",
                        "latitude": 13.38628,
                        "longitude": 102.361
                    },
                    {
                        "id": 139,
                        "identifier": "021002",
                        "en_name": "Sereimongkul",
                        "km_name": "ឃុំសិរីមានជ័យ",
                        "province_id": 2,
                        "province_identifier": "KH-2",
                        "district_id": 18,
                        "district_identifier": "0210",
                        "latitude": 13.452736,
                        "longitude": 102.367
                    },
                    {
                        "id": 140,
                        "identifier": "021003",
                        "en_name": "Santepheap",
                        "km_name": "ឃុំសន្តិភាព",
                        "province_id": 2,
                        "province_identifier": "KH-2",
                        "district_id": 18,
                        "district_identifier": "0210",
                        "latitude": 13.431699,
                        "longitude": 102.364
                    },
                    {
                        "id": 141,
                        "identifier": "021004",
                        "en_name": "Ta Sda",
                        "km_name": "ឃុំតាសា្ត",
                        "province_id": 2,
                        "province_identifier": "KH-2",
                        "district_id": 18,
                        "district_identifier": "0210",
                        "latitude": 13.42335,
                        "longitude": 102.383
                    },
                    {
                        "id": 142,
                        "identifier": "021005",
                        "en_name": "Sampov Lun",
                        "km_name": "ឃុំសំពៅលូន",
                        "province_id": 2,
                        "province_identifier": "KH-2",
                        "district_id": 18,
                        "district_identifier": "0210",
                        "latitude": 13.391958,
                        "longitude": 102.365
                    },
                    {
                        "id": 143,
                        "identifier": "021006",
                        "en_name": "Chrey Seima",
                        "km_name": "ឃុំជ្រៃសីមា",
                        "province_id": 2,
                        "province_identifier": "KH-2",
                        "district_id": 18,
                        "district_identifier": "0210",
                        "latitude": 13.469096,
                        "longitude": 102.363
                    }
                ]
            },
            {
                "id": 19,
                "identifier": "0211",
                "en_name": "Phnom Proek",
                "km_name": "ស្រុកភ្នំព្រឹក",
                "province_id": 2,
                "province_identifier": "KH-2",
                "latitude": 13.2747,
                "longitude": 102.526,
                "communes": [
                    {
                        "id": 144,
                        "identifier": "021101",
                        "en_name": "Phnom Preuk",
                        "km_name": "ឃុំភ្នំព្រឹក",
                        "province_id": 2,
                        "province_identifier": "KH-2",
                        "district_id": 19,
                        "district_identifier": "0211",
                        "latitude": 13.313124,
                        "longitude": 102.362
                    },
                    {
                        "id": 145,
                        "identifier": "021102",
                        "en_name": "Barang Thleak",
                        "km_name": "ឃុំបារាំងធ្លាក់",
                        "province_id": 2,
                        "province_identifier": "KH-2",
                        "district_id": 19,
                        "district_identifier": "0211",
                        "latitude": 13.349203,
                        "longitude": 102.347
                    },
                    {
                        "id": 146,
                        "identifier": "021103",
                        "en_name": "Ou Romdoul",
                        "km_name": "ឃុំអូររំដួល",
                        "province_id": 2,
                        "province_identifier": "KH-2",
                        "district_id": 19,
                        "district_identifier": "0211",
                        "latitude": 13.267348,
                        "longitude": 102.367
                    },
                    {
                        "id": 147,
                        "identifier": "021104",
                        "en_name": "Pich Chenda",
                        "km_name": "ឃុំពេជ្រចិន្តា",
                        "province_id": 2,
                        "province_identifier": "KH-2",
                        "district_id": 19,
                        "district_identifier": "0211",
                        "latitude": 13.222901,
                        "longitude": 102.385
                    },
                    {
                        "id": 148,
                        "identifier": "021105",
                        "en_name": "Bo",
                        "km_name": "ឃុំបូរ",
                        "province_id": 2,
                        "province_identifier": "KH-2",
                        "district_id": 19,
                        "district_identifier": "0211",
                        "latitude": 13.37793,
                        "longitude": 102.358
                    }
                ]
            },
            {
                "id": 20,
                "identifier": "0212",
                "en_name": "Kamrieng",
                "km_name": "ស្រុកកំរៀង",
                "province_id": 2,
                "province_identifier": "KH-2",
                "latitude": 13.11693,
                "longitude": 102.567,
                "communes": [
                    {
                        "id": 149,
                        "identifier": "021201",
                        "en_name": "Kamrieng",
                        "km_name": "ឃុំកំរៀង",
                        "province_id": 2,
                        "province_identifier": "KH-2",
                        "district_id": 20,
                        "district_identifier": "0212",
                        "latitude": 13.044028,
                        "longitude": 102.497
                    },
                    {
                        "id": 150,
                        "identifier": "021202",
                        "en_name": "Ou Da",
                        "km_name": "ឃុំអូរដា",
                        "province_id": 2,
                        "province_identifier": "KH-2",
                        "district_id": 20,
                        "district_identifier": "0212",
                        "latitude": 13.080482,
                        "longitude": 102.498
                    },
                    {
                        "id": 151,
                        "identifier": "021203",
                        "en_name": "Boeung Reang",
                        "km_name": "ឃុំបឹងរាំង",
                        "province_id": 2,
                        "province_identifier": "KH-2",
                        "district_id": 20,
                        "district_identifier": "0212",
                        "latitude": 13.081819,
                        "longitude": 102.469
                    },
                    {
                        "id": 152,
                        "identifier": "021204",
                        "en_name": "Trang",
                        "km_name": "ឃុំត្រាង",
                        "province_id": 2,
                        "province_identifier": "KH-2",
                        "district_id": 20,
                        "district_identifier": "0212",
                        "latitude": 13.110577,
                        "longitude": 102.433
                    },
                    {
                        "id": 153,
                        "identifier": "021205",
                        "en_name": "Ta Sen",
                        "km_name": "ឃុំតាសែន",
                        "province_id": 2,
                        "province_identifier": "KH-2",
                        "district_id": 20,
                        "district_identifier": "0212",
                        "latitude": 13.146352,
                        "longitude": 102.409
                    },
                    {
                        "id": 154,
                        "identifier": "021206",
                        "en_name": "Ta Kry",
                        "km_name": "ឃុំតាក្រី",
                        "province_id": 2,
                        "province_identifier": "KH-2",
                        "district_id": 20,
                        "district_identifier": "0212",
                        "latitude": 13.123617,
                        "longitude": 102.644
                    }
                ]
            },
            {
                "id": 21,
                "identifier": "0213",
                "en_name": "Koas Krala",
                "km_name": "ស្រុកគាស់ក្រឡ",
                "province_id": 2,
                "province_identifier": "KH-2",
                "latitude": 12.677856,
                "longitude": 103.197,
                "communes": [
                    {
                        "id": 155,
                        "identifier": "021301",
                        "en_name": "Chnal Morn",
                        "km_name": "ឃុំឆ្នាល់មាន់",
                        "province_id": 2,
                        "province_identifier": "KH-2",
                        "district_id": 21,
                        "district_identifier": "0213",
                        "latitude": 12.714028,
                        "longitude": 103.213
                    },
                    {
                        "id": 156,
                        "identifier": "021302",
                        "en_name": "Doun Ba",
                        "km_name": "ឃុំដូនបា",
                        "province_id": 2,
                        "province_identifier": "KH-2",
                        "district_id": 21,
                        "district_identifier": "0213",
                        "latitude": 12.76225,
                        "longitude": 103.243
                    },
                    {
                        "id": 157,
                        "identifier": "021303",
                        "en_name": "Hoab",
                        "km_name": "ឃុំហប់",
                        "province_id": 2,
                        "province_identifier": "KH-2",
                        "district_id": 21,
                        "district_identifier": "0213",
                        "latitude": 12.787362,
                        "longitude": 103.298
                    },
                    {
                        "id": 158,
                        "identifier": "021304",
                        "en_name": "Koas Krala",
                        "km_name": "ឃុំគាស់ក្រឡ",
                        "province_id": 2,
                        "province_identifier": "KH-2",
                        "district_id": 21,
                        "district_identifier": "0213",
                        "latitude": 12.767272,
                        "longitude": 103.264
                    },
                    {
                        "id": 159,
                        "identifier": "021305",
                        "en_name": "Preah Phos",
                        "km_name": "ឃុំព្រះផុស",
                        "province_id": 2,
                        "province_identifier": "KH-2",
                        "district_id": 21,
                        "district_identifier": "0213",
                        "latitude": 12.740819,
                        "longitude": 103.259
                    },
                    {
                        "id": 160,
                        "identifier": "021306",
                        "en_name": "Thebbakdey",
                        "km_name": "ឃុំធិបតី",
                        "province_id": 2,
                        "province_identifier": "KH-2",
                        "district_id": 21,
                        "district_identifier": "0213",
                        "latitude": 12.868037,
                        "longitude": 103.278
                    }
                ]
            },
            {
                "id": 22,
                "identifier": "0214",
                "en_name": "Rukhakiri",
                "km_name": "ស្រុករុក្ខគិរី",
                "province_id": 2,
                "province_identifier": "KH-2",
                "latitude": 12.579361,
                "longitude": 103.453,
                "communes": [
                    {
                        "id": 161,
                        "identifier": "021401",
                        "en_name": "Prey Tralach",
                        "km_name": "ឃុំព្រៃត្រលាច",
                        "province_id": 2,
                        "province_identifier": "KH-2",
                        "district_id": 22,
                        "district_identifier": "0214",
                        "latitude": 12.580617,
                        "longitude": 103.455
                    },
                    {
                        "id": 162,
                        "identifier": "021402",
                        "en_name": "Bok Rea",
                        "km_name": "ឃុំបុខរា",
                        "province_id": 2,
                        "province_identifier": "KH-2",
                        "district_id": 22,
                        "district_identifier": "0214",
                        "latitude": 12.560428,
                        "longitude": 103.561
                    },
                    {
                        "id": 163,
                        "identifier": "021403",
                        "en_name": "Prek Chik",
                        "km_name": "ឃុំព្រែកជីក",
                        "province_id": 2,
                        "province_identifier": "KH-2",
                        "district_id": 22,
                        "district_identifier": "0214",
                        "latitude": 12.66027,
                        "longitude": 103.411
                    },
                    {
                        "id": 164,
                        "identifier": "021404",
                        "en_name": "Basak",
                        "km_name": "ឃុំបាសាក់",
                        "province_id": 2,
                        "province_identifier": "KH-2",
                        "district_id": 22,
                        "district_identifier": "0214",
                        "latitude": 12.585895,
                        "longitude": 103.62
                    },
                    {
                        "id": 165,
                        "identifier": "021405",
                        "en_name": "Sdok Praveuk",
                        "km_name": "ឃុំស្ដុកប្រវឹក",
                        "province_id": 2,
                        "province_identifier": "KH-2",
                        "district_id": 22,
                        "district_identifier": "0214",
                        "latitude": 12.596114,
                        "longitude": 103.332
                    }
                ]
            }
        ]
    },
    {
        "id": 3,
        "identifier": "KH-3",
        "en_name": "Kampong Cham",
        "km_name": "ខេត្តកំពង់ចាម",
        "latitude": 12.001712,
        "longitude": 105.44,
        "districts": [
            {
                "id": 23,
                "identifier": "0301",
                "en_name": "Batheay",
                "km_name": "ស្រុកបាធាយ​",
                "province_id": 3,
                "province_identifier": "KH-3",
                "latitude": 12.02186,
                "longitude": 104.958,
                "communes": [
                    {
                        "id": 166,
                        "identifier": "030101",
                        "en_name": "Batheay",
                        "km_name": "ឃុំបាធាយ",
                        "province_id": 3,
                        "province_identifier": "KH-3",
                        "district_id": 23,
                        "district_identifier": "0301",
                        "latitude": 11.981226,
                        "longitude": 104.942
                    },
                    {
                        "id": 167,
                        "identifier": "030102",
                        "en_name": "Chbar Ampov",
                        "km_name": "ឃុំច្បារអំពៅ",
                        "province_id": 3,
                        "province_identifier": "KH-3",
                        "district_id": 23,
                        "district_identifier": "0301",
                        "latitude": 11.918752,
                        "longitude": 104.972
                    },
                    {
                        "id": 168,
                        "identifier": "030103",
                        "en_name": "Chea Lea",
                        "km_name": "ឃុំជាលា",
                        "province_id": 3,
                        "province_identifier": "KH-3",
                        "district_id": 23,
                        "district_identifier": "0301",
                        "latitude": 11.913629,
                        "longitude": 104.928
                    },
                    {
                        "id": 169,
                        "identifier": "030104",
                        "en_name": "Cherng Prey",
                        "km_name": "ឃុំជើងព្រៃ",
                        "province_id": 3,
                        "province_identifier": "KH-3",
                        "district_id": 23,
                        "district_identifier": "0301",
                        "latitude": 12.05913,
                        "longitude": 104.972
                    },
                    {
                        "id": 170,
                        "identifier": "030105",
                        "en_name": "Me Pring",
                        "km_name": "ឃុំមេព្រីង",
                        "province_id": 3,
                        "province_identifier": "KH-3",
                        "district_id": 23,
                        "district_identifier": "0301",
                        "latitude": 12.03059,
                        "longitude": 104.939
                    },
                    {
                        "id": 171,
                        "identifier": "030106",
                        "en_name": "Pharav",
                        "km_name": "ឃុំផ្អាវ",
                        "province_id": 3,
                        "province_identifier": "KH-3",
                        "district_id": 23,
                        "district_identifier": "0301",
                        "latitude": 12.027904,
                        "longitude": 104.967
                    },
                    {
                        "id": 172,
                        "identifier": "030107",
                        "en_name": "Sambo",
                        "km_name": "ឃុំសំបូរ",
                        "province_id": 3,
                        "province_identifier": "KH-3",
                        "district_id": 23,
                        "district_identifier": "0301",
                        "latitude": 11.867015,
                        "longitude": 104.852
                    },
                    {
                        "id": 173,
                        "identifier": "030108",
                        "en_name": "Sandaek",
                        "km_name": "ឃុំសណ្តែក",
                        "province_id": 3,
                        "province_identifier": "KH-3",
                        "district_id": 23,
                        "district_identifier": "0301",
                        "latitude": 12.122915,
                        "longitude": 104.973
                    },
                    {
                        "id": 174,
                        "identifier": "030109",
                        "en_name": "Tang Krang",
                        "km_name": "ឃុំតាំងក្រាំង",
                        "province_id": 3,
                        "province_identifier": "KH-3",
                        "district_id": 23,
                        "district_identifier": "0301",
                        "latitude": 11.881126,
                        "longitude": 104.937
                    },
                    {
                        "id": 175,
                        "identifier": "030110",
                        "en_name": "Tang Krasang",
                        "km_name": "ឃុំតាំងក្រសាំង",
                        "province_id": 3,
                        "province_identifier": "KH-3",
                        "district_id": 23,
                        "district_identifier": "0301",
                        "latitude": 12.082967,
                        "longitude": 104.955
                    },
                    {
                        "id": 176,
                        "identifier": "030111",
                        "en_name": "Trob",
                        "km_name": "ឃុំត្រប់",
                        "province_id": 3,
                        "province_identifier": "KH-3",
                        "district_id": 23,
                        "district_identifier": "0301",
                        "latitude": 12.133991,
                        "longitude": 104.94
                    },
                    {
                        "id": 177,
                        "identifier": "030112",
                        "en_name": "Tumnub",
                        "km_name": "ឃុំទំនប់",
                        "province_id": 3,
                        "province_identifier": "KH-3",
                        "district_id": 23,
                        "district_identifier": "0301",
                        "latitude": 12.074238,
                        "longitude": 104.975
                    }
                ]
            },